{
  "version": "1.0",
  "source": "Libs_JSON_old/countries.json",
  "consolidated_date": "2025-11-07",
  "total_countries": 54,
  "data": [
    {
      "id": 47,
      "name": "Albania",
      "iso2": "AL",
      "iso3": "ALB",
      "latitude": 41.3275,
      "longitude": 19.8189,
      "flag_url": "https://api.crm-s.com/flags/al.png",
      "metadata": {
        "created_at": "2024-09-10T17:28:58.000000Z",
        "translation_language": "English"
      }
    },
    {
      "id": 50,
      "name": "Armenia",
      "iso2": "AM",
      "iso3": "ARM",
      "latitude": 40.1792,
      "longitude": 44.4991,
      "flag_url": "https://api.crm-s.com/flags/am.png",
      "metadata": {
        "created_at": "2024-09-10T17:30:29.000000Z",
        "translation_language": "English"
      }
    },
    {
      "id": 14,
      "name": "Australia",
      "iso2": "AU",
      "iso3": "AUS",
      "latitude": -35.2809,
      "longitude": 149.13,
      "flag_url": "https://api.crm-s.com/flags/au.png",
      "metadata": {
        "created_at": "2024-09-10T17:07:40.000000Z",
        "translation_language": "English"
      }
    },
    {
      "id": 26,
      "name": "Austria",
      "iso2": "AT",
      "iso3": "AUT",
      "latitude": 48.2082,
      "longitude": 16.3738,
      "flag_url": "https://api.crm-s.com/flags/at.png",
      "metadata": {
        "created_at": "2024-09-10T17:17:37.000000Z",
        "translation_language": "English"
      }
    },
    {
      "id": 53,
      "name": "Azerbaijan",
      "iso2": "AZ",
      "iso3": "AZE",
      "latitude": null,
      "longitude": null,
      "flag_url": "https://api.crm-s.com/flags/az.png",
      "metadata": {
        "created_at": "2025-06-06T07:31:12.000000Z",
        "translation_language": "English"
      }
    },
    {
      "id": 52,
      "name": "Belarus",
      "iso2": "BY",
      "iso3": "BLR",
      "latitude": 112,
      "longitude": null,
      "flag_url": "https://api.crm-s.com/flags/by.png",
      "metadata": {
        "created_at": "2024-10-16T17:14:32.000000Z",
        "translation_language": "English"
      }
    },
    {
      "id": 9,
      "name": "Belgium",
      "iso2": "BE",
      "iso3": "BEL",
      "latitude": 50.8503,
      "longitude": 4.3517,
      "flag_url": "https://api.crm-s.com/flags/be.png",
      "metadata": {
        "created_at": "2024-09-10T17:04:05.000000Z",
        "translation_language": "English"
      }
    },
    {
      "id": 27,
      "name": "Bulgaria",
      "iso2": "BG",
      "iso3": "BGR",
      "latitude": 42.6977,
      "longitude": 23.3219,
      "flag_url": "https://api.crm-s.com/flags/bg.png",
      "metadata": {
        "created_at": "2024-09-10T17:18:07.000000Z",
        "translation_language": "English"
      }
    },
    {
      "id": 13,
      "name": "Canada",
      "iso2": "CA",
      "iso3": "CAN",
      "latitude": 45.4215,
      "longitude": -75.6919,
      "flag_url": "https://api.crm-s.com/flags/ca.png",
      "metadata": {
        "created_at": "2024-09-10T17:06:57.000000Z",
        "translation_language": "English"
      }
    },
    {
      "id": 15,
      "name": "China",
      "iso2": "CN",
      "iso3": "CHN",
      "latitude": 39.9042,
      "longitude": 116.4074,
      "flag_url": "https://api.crm-s.com/flags/cn.png",
      "metadata": {
        "created_at": "2024-09-10T17:08:29.000000Z",
        "translation_language": "English"
      }
    },
    {
      "id": 28,
      "name": "Croatia",
      "iso2": "HR",
      "iso3": "HRV",
      "latitude": 45.815,
      "longitude": 15.9819,
      "flag_url": "https://api.crm-s.com/flags/hr.png",
      "metadata": {
        "created_at": "2024-09-10T17:18:37.000000Z",
        "translation_language": "English"
      }
    },
    {
      "id": 29,
      "name": "Cyprus",
      "iso2": "CY",
      "iso3": "CYP",
      "latitude": 35.1856,
      "longitude": 33.3823,
      "flag_url": "https://api.crm-s.com/flags/cy.png",
      "metadata": {
        "created_at": "2024-09-10T17:19:14.000000Z",
        "translation_language": "English"
      }
    },
    {
      "id": 30,
      "name": "Czech Republic (Czechia)",
      "iso2": "CZ",
      "iso3": "CZE",
      "latitude": 50.0755,
      "longitude": 14.4378,
      "flag_url": "https://api.crm-s.com/flags/cz.png",
      "metadata": {
        "created_at": "2024-09-10T17:19:44.000000Z",
        "translation_language": "English"
      }
    },
    {
      "id": 31,
      "name": "Denmark",
      "iso2": "DK",
      "iso3": "DNK",
      "latitude": 55.6761,
      "longitude": 12.5683,
      "flag_url": "https://api.crm-s.com/flags/dk.png",
      "metadata": {
        "created_at": "2024-09-10T17:20:18.000000Z",
        "translation_language": "English"
      }
    },
    {
      "id": 19,
      "name": "Egypt",
      "iso2": "EG",
      "iso3": "EGY",
      "latitude": 30.0444,
      "longitude": 31.2357,
      "flag_url": "https://api.crm-s.com/flags/eg.png",
      "metadata": {
        "created_at": "2024-09-10T17:10:49.000000Z",
        "translation_language": "English"
      }
    },
    {
      "id": 32,
      "name": "Estonia",
      "iso2": "EE",
      "iso3": "EST",
      "latitude": 59.437,
      "longitude": 24.7535,
      "flag_url": "https://api.crm-s.com/flags/ee.png",
      "metadata": {
        "created_at": "2024-09-10T17:20:43.000000Z",
        "translation_language": "English"
      }
    },
    {
      "id": 33,
      "name": "Finland",
      "iso2": "FI",
      "iso3": "FIN",
      "latitude": 60.1695,
      "longitude": 24.9355,
      "flag_url": "https://api.crm-s.com/flags/fi.png",
      "metadata": {
        "created_at": "2024-09-10T17:21:11.000000Z",
        "translation_language": "English"
      }
    },
    {
      "id": 4,
      "name": "France",
      "iso2": "FR",
      "iso3": "FRA",
      "latitude": 48.8566,
      "longitude": 2.3522,
      "flag_url": "https://api.crm-s.com/flags/fr.png",
      "metadata": {
        "created_at": "2024-09-10T17:01:33.000000Z",
        "translation_language": "English"
      }
    },
    {
      "id": 51,
      "name": "Georgia",
      "iso2": "GE",
      "iso3": "GEO",
      "latitude": 41.7151,
      "longitude": 44.8271,
      "flag_url": "https://api.crm-s.com/flags/ge.png",
      "metadata": {
        "created_at": "2024-09-10T17:30:52.000000Z",
        "translation_language": "English"
      }
    },
    {
      "id": 3,
      "name": "Germany",
      "iso2": "DE",
      "iso3": "DEU",
      "latitude": 52.52,
      "longitude": 13.405,
      "flag_url": "https://api.crm-s.com/flags/de.png",
      "metadata": {
        "created_at": "2024-09-10T17:00:56.000000Z",
        "translation_language": "English"
      }
    },
    {
      "id": 34,
      "name": "Greece",
      "iso2": "GR",
      "iso3": "GRC",
      "latitude": 37.9838,
      "longitude": 23.7275,
      "flag_url": "https://api.crm-s.com/flags/gr.png",
      "metadata": {
        "created_at": "2024-09-10T17:21:38.000000Z",
        "translation_language": "English"
      }
    },
    {
      "id": 35,
      "name": "Hungary",
      "iso2": "HU",
      "iso3": "HUN",
      "latitude": 47.4979,
      "longitude": 19.0402,
      "flag_url": "https://api.crm-s.com/flags/hu.png",
      "metadata": {
        "created_at": "2024-09-10T17:22:01.000000Z",
        "translation_language": "English"
      }
    },
    {
      "id": 36,
      "name": "Ireland",
      "iso2": "IE",
      "iso3": "IRL",
      "latitude": 53.3498,
      "longitude": -6.2603,
      "flag_url": "https://api.crm-s.com/flags/ie.png",
      "metadata": {
        "created_at": "2024-09-10T17:22:27.000000Z",
        "translation_language": "English"
      }
    },
    {
      "id": 25,
      "name": "Israel",
      "iso2": "IL",
      "iso3": "ISR",
      "latitude": 31.7683,
      "longitude": 35.2137,
      "flag_url": "https://api.crm-s.com/flags/il.png",
      "metadata": {
        "created_at": "2024-09-10T17:16:26.000000Z",
        "translation_language": "English"
      }
    },
    {
      "id": 5,
      "name": "Italy",
      "iso2": "IT",
      "iso3": "ITA",
      "latitude": 41.9028,
      "longitude": 12.4964,
      "flag_url": "https://api.crm-s.com/flags/it.png",
      "metadata": {
        "created_at": "2024-09-10T17:02:03.000000Z",
        "translation_language": "English"
      }
    },
    {
      "id": 16,
      "name": "Japan",
      "iso2": "JP",
      "iso3": "JPN",
      "latitude": 35.6895,
      "longitude": 139.6917,
      "flag_url": "https://api.crm-s.com/flags/jp.png",
      "metadata": {
        "created_at": "2024-09-10T17:09:02.000000Z",
        "translation_language": "English"
      }
    },
    {
      "id": 54,
      "name": "Kazakhstan",
      "iso2": "KZ",
      "iso3": "KAZ",
      "latitude": null,
      "longitude": null,
      "flag_url": "https://api.crm-s.com/flags/kz.png",
      "metadata": {
        "created_at": "2025-06-10T11:28:01.000000Z",
        "translation_language": "English"
      }
    },
    {
      "id": 37,
      "name": "Latvia",
      "iso2": "LV",
      "iso3": "LVA",
      "latitude": 56.9496,
      "longitude": 24.1052,
      "flag_url": "https://api.crm-s.com/flags/lv.png",
      "metadata": {
        "created_at": "2024-09-10T17:23:01.000000Z",
        "translation_language": "English"
      }
    },
    {
      "id": 38,
      "name": "Lithuania",
      "iso2": "LT",
      "iso3": "LTU",
      "latitude": 54.6872,
      "longitude": 25.2797,
      "flag_url": "https://api.crm-s.com/flags/lt.png",
      "metadata": {
        "created_at": "2024-09-10T17:23:26.000000Z",
        "translation_language": "English"
      }
    },
    {
      "id": 39,
      "name": "Luxembourg",
      "iso2": "LU",
      "iso3": "LUX",
      "latitude": 49.6117,
      "longitude": 6.1319,
      "flag_url": "https://api.crm-s.com/flags/lu.png",
      "metadata": {
        "created_at": "2024-09-10T17:23:51.000000Z",
        "translation_language": "English"
      }
    },
    {
      "id": 40,
      "name": "Malta",
      "iso2": "MT",
      "iso3": "MLT",
      "latitude": 35.8997,
      "longitude": 14.5146,
      "flag_url": "https://api.crm-s.com/flags/mt.png",
      "metadata": {
        "created_at": "2024-09-10T17:24:14.000000Z",
        "translation_language": "English"
      }
    },
    {
      "id": 17,
      "name": "Mexico",
      "iso2": "MX",
      "iso3": "MEX",
      "latitude": 19.4326,
      "longitude": -99.1332,
      "flag_url": "https://api.crm-s.com/flags/mx.png",
      "metadata": {
        "created_at": "2024-09-10T17:09:35.000000Z",
        "translation_language": "English"
      }
    },
    {
      "id": 49,
      "name": "Moldova",
      "iso2": "MD",
      "iso3": "MDA",
      "latitude": 47.0105,
      "longitude": 28.8638,
      "flag_url": "https://api.crm-s.com/flags/md.png",
      "metadata": {
        "created_at": "2024-09-10T17:29:57.000000Z",
        "translation_language": "English"
      }
    },
    {
      "id": 48,
      "name": "Montenegro",
      "iso2": "ME",
      "iso3": "MNE",
      "latitude": 42.4304,
      "longitude": 19.2594,
      "flag_url": "https://api.crm-s.com/flags/me.png",
      "metadata": {
        "created_at": "2024-09-10T17:29:25.000000Z",
        "translation_language": "English"
      }
    },
    {
      "id": 24,
      "name": "Morocco",
      "iso2": "MA",
      "iso3": "MAR",
      "latitude": 34.0209,
      "longitude": -6.8416,
      "flag_url": "https://api.crm-s.com/flags/ma.png",
      "metadata": {
        "created_at": "2024-09-10T17:15:53.000000Z",
        "translation_language": "English"
      }
    },
    {
      "id": 8,
      "name": "Netherlands",
      "iso2": "NL",
      "iso3": "NLD",
      "latitude": 52.3676,
      "longitude": 4.9041,
      "flag_url": "https://api.crm-s.com/flags/nl.png",
      "metadata": {
        "created_at": "2024-09-10T17:03:33.000000Z",
        "translation_language": "English"
      }
    },
    {
      "id": 22,
      "name": "New Zealand",
      "iso2": "NZ",
      "iso3": "NZL",
      "latitude": -41.2865,
      "longitude": 174.7762,
      "flag_url": "https://api.crm-s.com/flags/nz.png",
      "metadata": {
        "created_at": "2024-09-10T17:14:18.000000Z",
        "translation_language": "English"
      }
    },
    {
      "id": 44,
      "name": "Norway",
      "iso2": "NO",
      "iso3": "NOR",
      "latitude": 59.9139,
      "longitude": 10.7522,
      "flag_url": "https://api.crm-s.com/flags/no.png",
      "metadata": {
        "created_at": "2024-09-10T17:27:19.000000Z",
        "translation_language": "English"
      }
    },
    {
      "id": 23,
      "name": "Philippines",
      "iso2": "PH",
      "iso3": "PHL",
      "latitude": 14.5995,
      "longitude": 120.9842,
      "flag_url": "https://api.crm-s.com/flags/ph.png",
      "metadata": {
        "created_at": "2024-09-10T17:15:12.000000Z",
        "translation_language": "English"
      }
    },
    {
      "id": 7,
      "name": "Poland",
      "iso2": "PL",
      "iso3": "POL",
      "latitude": 52.2297,
      "longitude": 21.0122,
      "flag_url": "https://api.crm-s.com/flags/pl.png",
      "metadata": {
        "created_at": "2024-09-10T17:03:04.000000Z",
        "translation_language": "English"
      }
    },
    {
      "id": 11,
      "name": "Portugal",
      "iso2": "PT",
      "iso3": "PRT",
      "latitude": 38.7223,
      "longitude": -9.1393,
      "flag_url": "https://api.crm-s.com/flags/pt.png",
      "metadata": {
        "created_at": "2024-09-10T17:05:24.000000Z",
        "translation_language": "English"
      }
    },
    {
      "id": 41,
      "name": "Romania",
      "iso2": "RO",
      "iso3": "ROU",
      "latitude": 44.4268,
      "longitude": 26.1025,
      "flag_url": "https://api.crm-s.com/flags/ro.png",
      "metadata": {
        "created_at": "2024-09-10T17:24:53.000000Z",
        "translation_language": "English"
      }
    },
    {
      "id": 46,
      "name": "Serbia",
      "iso2": "RS",
      "iso3": "SRB",
      "latitude": 44.7866,
      "longitude": 20.4489,
      "flag_url": "https://api.crm-s.com/flags/rs.png",
      "metadata": {
        "created_at": "2024-09-10T17:28:36.000000Z",
        "translation_language": "English"
      }
    },
    {
      "id": 42,
      "name": "Slovakia",
      "iso2": "SK",
      "iso3": "SVK",
      "latitude": 48.1486,
      "longitude": 17.1077,
      "flag_url": "https://api.crm-s.com/flags/sk.png",
      "metadata": {
        "created_at": "2024-09-10T17:25:22.000000Z",
        "translation_language": "English"
      }
    },
    {
      "id": 43,
      "name": "Slovenia",
      "iso2": "SI",
      "iso3": "SVN",
      "latitude": 46.0569,
      "longitude": 14.5058,
      "flag_url": "https://api.crm-s.com/flags/si.png",
      "metadata": {
        "created_at": "2024-09-10T17:25:51.000000Z",
        "translation_language": "English"
      }
    },
    {
      "id": 21,
      "name": "South Korea",
      "iso2": "KR",
      "iso3": "KOR",
      "latitude": 37.5665,
      "longitude": 126.978,
      "flag_url": "https://api.crm-s.com/flags/kr.png",
      "metadata": {
        "created_at": "2024-09-10T17:13:40.000000Z",
        "translation_language": "English"
      }
    },
    {
      "id": 6,
      "name": "Spain",
      "iso2": "ES",
      "iso3": "ESP",
      "latitude": 40.4168,
      "longitude": 3.7038,
      "flag_url": "https://api.crm-s.com/flags/es.png",
      "metadata": {
        "created_at": "2024-09-10T17:02:33.000000Z",
        "translation_language": "English"
      }
    },
    {
      "id": 10,
      "name": "Sweden",
      "iso2": "SE",
      "iso3": "SWE",
      "latitude": 59.3293,
      "longitude": 18.0686,
      "flag_url": "https://api.crm-s.com/flags/se.png",
      "metadata": {
        "created_at": "2024-09-10T17:04:40.000000Z",
        "translation_language": "English"
      }
    },
    {
      "id": 45,
      "name": "Switzerland",
      "iso2": "CH",
      "iso3": "CHE",
      "latitude": 46.9481,
      "longitude": 7.4474,
      "flag_url": "https://api.crm-s.com/flags/ch.png",
      "metadata": {
        "created_at": "2024-09-10T17:27:46.000000Z",
        "translation_language": "English"
      }
    },
    {
      "id": 18,
      "name": "Turkey",
      "iso2": "TR",
      "iso3": "TUR",
      "latitude": 39.9334,
      "longitude": 32.8597,
      "flag_url": "https://api.crm-s.com/flags/tr.png",
      "metadata": {
        "created_at": "2024-09-10T17:10:13.000000Z",
        "translation_language": "English"
      }
    },
    {
      "id": 2,
      "name": "Ukraine",
      "iso2": "UA",
      "iso3": "UKR",
      "latitude": null,
      "longitude": null,
      "flag_url": "https://api.crm-s.com/flags/ua.png",
      "metadata": {
        "created_at": "2024-09-10T12:55:30.000000Z",
        "translation_language": "English"
      }
    },
    {
      "id": 20,
      "name": "United Arab Emirates",
      "iso2": "AE",
      "iso3": "ARE",
      "latitude": 24.4539,
      "longitude": 54.3773,
      "flag_url": "https://api.crm-s.com/flags/ae.png",
      "metadata": {
        "created_at": "2024-09-10T17:11:29.000000Z",
        "translation_language": "English"
      }
    },
    {
      "id": 1,
      "name": "United Kingdom",
      "iso2": "UK",
      "iso3": "GBR",
      "latitude": null,
      "longitude": null,
      "flag_url": "https://api.crm-s.com/flags/gb.png",
      "metadata": {
        "created_at": "2024-09-10T12:54:53.000000Z",
        "translation_language": "English"
      }
    },
    {
      "id": 12,
      "name": "United States",
      "iso2": "US",
      "iso3": "USA",
      "latitude": 38.9072,
      "longitude": -77.0369,
      "flag_url": "https://api.crm-s.com/flags/us.png",
      "metadata": {
        "created_at": "2024-09-10T17:06:28.000000Z",
        "translation_language": "English"
      }
    }
  ]
}